[
  {
    "name": "Visitor Information Centre",
    "lat": 51.883955,
    "lng": -1.758059
  },
  {
    "name": "Cotswold Motoring Museum & Toy Collection",
    "lat": 51.884723,
    "lng": -1.758639
  },
  {
    "name": "The Model Village",
    "lat": 51.88328,
    "lng": -1.755592
  },
  {
    "name": "Birdland",
    "lat": 51.88165,
    "lng": -1.754175
  },
  {
    "name": "River Windrush",
    "lat": 51.88389,
    "lng": -1.757373
  }
]
