[
  {
    "name": "Birdland",
    "lat": 51.880595,
    "lng": -1.754331
  },
  {
    "name": "Cotswold Motoring Museum",
    "lat": 51.884754,
    "lng": -1.759089
  },
  {
    "name": "Cotswold Pefumery",
    "lat": 51.8840,
    "lng": -1.7581
  },
  {
    "name": "Hartwells Cycle Hire",
    "lat": 51.884064,
    "lng": -1.757219
  },
  {
    "name": "The Model Village",
    "lat": 51.88317,
    "lng": -1.755567
  },
  {
    "name": "Craigmoor Cottage",
    "lat": 51.8826022,
    "lng": -1.7567212
  }
]
